[
  {
    "id": 1,
    "title": "Développeur Front-End",
    "company": "Leboncoin",
    "location": {
      "city": "Paris",
      "department": {
        "isoCode": "FR-75"
      }
    }
  },
  {
    "id": 2,
    "title": "Ingénieur Logiciel",
    "company": "Dassault Systèmes",
    "location": {
      "city": "Vélizy-Villacoublay",
      "department": {
        "isoCode": "FR-78"
      }
    }
  },
  {
    "id": 3,
    "title": "Chargé(e) de Marketing",
    "company": "L'Oréal",
    "location": {
      "city": "Clichy",
      "department": {
        "isoCode": "FR-92"
      }
    }
  },
  {
    "id": 4,
    "title": "Designer Graphique",
    "company": "Havas",
    "location": {
      "city": "Puteaux",
      "department": {
        "isoCode": "FR-92"
      }
    }
  },
  {
    "id": 5,
    "title": "Développeur Full-Stack",
    "company": "Airbus",
    "location": {
      "city": "Toulouse",
      "department": {
        "isoCode": "FR-31"
      }
    }
  },
  {
    "id": 6,
    "title": "Analyste Financier",
    "company": "BNP Paribas",
    "location": {
      "city": "Paris",
      "department": {
        "isoCode": "FR-75"
      }
    }
  },
  {
    "id": 7,
    "title": "Chef de Projet Digital",
    "company": "Capgemini",
    "location": {
      "city": "Toulouse",
      "department": {
        "isoCode": "FR-31"
      }
    }
  },
  {
    "id": 8,
    "title": "Ingénieur Réseau",
    "company": "Orange",
    "location": {
      "city": "Issy-les-Moulineaux",
      "department": {
        "isoCode": "FR-92"
      }
    }
  },
  {
    "id": 9,
    "title": "Développeur Mobile",
    "company": "Alten",
    "location": {
      "city": "Rennes",
      "department": {
        "isoCode": "FR-35"
      }
    }
  },
  {
    "id": 10,
    "title": "Responsable Ressources Humaines",
    "company": "Renault",
    "location": {
      "city": "Boulogne-Billancourt",
      "department": {
        "isoCode": "FR-92"
      }
    }
  },
  {
    "id": 11,
    "title": "RH",
    "company": "Webforce3",
    "location": {
      "city": "Bobigny",
      "department": {
        "isoCode": "FR-93"
      }
    }
  }
]